[
  {
    "source": "NY Times",
    "region": "us",
    "language": "en",
    "id": "594296196377",
    "title": "Sardinian Village Tries to Save an Ancient Tree Scorched by Fire",
    "link": "https://www.nytimes.com/2021/08/22/world/europe/italy-sardinia-fire-tree.html",
    "published": "Sun, 22 Aug 2021 16:12:16 +0000",
    "tags": [
      "wildfires",
      "trees and shrubs",
      "sardinia (italy)",
      "olives",
      "agriculture and farming"
    ],
    "geometry": {
      "location": {
        "lat": 40.7127753,
        "lng": -74.0059728
      },
      "viewport": {
        "northeast": {
          "lat": 40.9175771,
          "lng": -73.70027209999999
        },
        "southwest": {
          "lat": 40.4773991,
          "lng": -74.25908989999999
        }
      }
    }
  },
  {
    "source": "NY Times",
    "region": "us",
    "language": "en",
    "id": "149281201077",
    "title": "The World\u2019s Last Samaritans, Straddling the Israeli-Palestinian Divide",
    "link": "https://www.nytimes.com/2021/08/22/world/middleeast/samaritans-israeli-palestinian.html",
    "published": "Sun, 22 Aug 2021 14:19:47 +0000",
    "tags": [
      "religion and belief",
      "west bank",
      "likud party (israel)",
      "israel",
      "palestinian authority",
      "palestinians",
      "jews and judaism"
    ],
    "geometry": {
      "name": "Israel",
      "code": "IL",
      "geometry": {
        "location": {
          "lat": 31.046051,
          "lng": 34.851612
        },
        "viewport": {
          "northeast": {
            "lat": 33.33280500000001,
            "lng": 35.896244
          },
          "southwest": {
            "lat": 29.47969999999999,
            "lng": 34.2673871
          }
        }
      }
    }
  },
  {
    "source": "NY Times",
    "region": "us",
    "language": "en",
    "id": "179067225980",
    "title": "Josephine Baker to Be Honored With a Panth\u00e9on Burial",
    "link": "https://www.nytimes.com/2021/08/22/world/europe/josephine-baker-pantheon-burial.html",
    "published": "Sun, 22 Aug 2021 17:23:26 +0000",
    "tags": [
      "discrimination",
      "politics and government",
      "black people",
      "awards, decorations and honors",
      "women and girls",
      "funerals and memorials",
      "pantheon (paris, france)",
      "baker, josephine (1906-75)",
      "paris (france)"
    ],
    "geometry": {
      "location": {
        "lat": 40.7127753,
        "lng": -74.0059728
      },
      "viewport": {
        "northeast": {
          "lat": 40.9175771,
          "lng": -73.70027209999999
        },
        "southwest": {
          "lat": 40.4773991,
          "lng": -74.25908989999999
        }
      }
    }
  },
  {
    "source": "NY Times",
    "region": "us",
    "language": "en",
    "id": "938649512654",
    "title": "Afghanistan Live Updates: U.S. Orders Commercial Airlines to Ferry Afghan Evacuees",
    "link": "https://www.nytimes.com/live/2021/08/22/world/taliban-afghanistan-biden-news/",
    "published": "Sun, 22 Aug 2021 19:13:55 +0000",
    "tags": [
      "afghanistan live updates",
      "u.s. orders commercial",
      "ferry afghan evacuees"
    ],
    "geometry": {
      "location": {
        "lat": 40.7127753,
        "lng": -74.0059728
      },
      "viewport": {
        "northeast": {
          "lat": 40.9175771,
          "lng": -73.70027209999999
        },
        "southwest": {
          "lat": 40.4773991,
          "lng": -74.25908989999999
        }
      }
    }
  },
  {
    "source": "NY Times",
    "region": "us",
    "language": "en",
    "id": "790957470757",
    "title": "This Is How the U.S.'s Afghanistan Exit Plan Unraveled",
    "link": "https://www.nytimes.com/2021/08/21/us/politics/biden-taliban-afghanistan-kabul.html",
    "published": "Sun, 22 Aug 2021 07:53:42 +0000",
    "tags": [
      "afghanistan war (2001- )",
      "united states defense and military forces",
      "united states international relations",
      "united states politics and government",
      "terrorism",
      "taliban",
      "refugees and displaced persons",
      "biden, joseph r jr",
      "blinken, antony j",
      "state department",
      "afghanistan",
      "ghani, ashraf",
      "politics and government",
      "afghan national security forces"
    ],
    "geometry": {
      "name": "Afghanistan",
      "code": "AF",
      "geometry": {
        "location": {
          "lat": 33.93911,
          "lng": 67.709953
        },
        "viewport": {
          "northeast": {
            "lat": 38.49087670000001,
            "lng": 74.8898619
          },
          "southwest": {
            "lat": 29.3772,
            "lng": 60.5170005
          }
        }
      }
    }
  },
  {
    "source": "NY Times",
    "region": "us",
    "language": "en",
    "id": "963031034752",
    "title": "He Guarded Haiti\u2019s Slain President. And He Was a Suspect in a Drug Inquiry.",
    "link": "https://www.nytimes.com/2021/08/21/world/americas/haiti-president-assassination-drugs.html",
    "published": "Sat, 21 Aug 2021 17:51:29 +0000",
    "tags": [
      "haiti",
      "moise, jovenel (1968- )",
      "politics and government",
      "assassinations and attempted assassinations",
      "drug abuse and traffic",
      "corruption (institutional)",
      "smuggling",
      "drug enforcement administration",
      "martelly, michel",
      "herard, dimitri",
      "guards",
      "security and warning systems"
    ],
    "geometry": {
      "name": "Haiti",
      "code": "HT",
      "geometry": {
        "location": {
          "lat": 18.971187,
          "lng": -72.285215
        },
        "viewport": {
          "northeast": {
            "lat": 20.1282,
            "lng": -71.621754
          },
          "southwest": {
            "lat": 17.9422,
            "lng": -74.6082
          }
        }
      }
    }
  },
  {
    "source": "NY Times",
    "region": "us",
    "language": "en",
    "id": "472620323280",
    "title": "Athens Is Only Getting Hotter. Its New \u2018Chief Heat Officer\u2019 Hopes to Cool It Down.",
    "link": "https://www.nytimes.com/2021/08/21/world/europe/athens-is-only-getting-hotter-its-new-chief-heat-officer-hopes-to-cool-it-down.html",
    "published": "Sat, 21 Aug 2021 16:02:56 +0000",
    "tags": [
      "weather",
      "heat and heat waves",
      "politics and government",
      "wildfires",
      "athens (greece)",
      "greece"
    ],
    "geometry": {
      "name": "Greece",
      "code": "GR",
      "geometry": {
        "location": {
          "lat": 39.074208,
          "lng": 21.824312
        },
        "viewport": {
          "northeast": {
            "lat": 41.7488784,
            "lng": 29.654
          },
          "southwest": {
            "lat": 34.5428,
            "lng": 19.3098
          }
        }
      }
    }
  },
  {
    "source": "NY Times",
    "region": "us",
    "language": "en",
    "id": "875325267404",
    "title": "Fears Rise About Safety of Afghan Airport as U.S. Warns Americans to Stay Away",
    "link": "https://www.nytimes.com/2021/08/21/world/asia/Afghanistan-Kabul-airport-evacuations.html",
    "published": "Sat, 21 Aug 2021 23:36:11 +0000",
    "tags": [
      "afghanistan war (2001- )",
      "afghan-americans",
      "evacuations and evacuees",
      "kabul international airport",
      "taliban",
      "baradar, abdul ghani",
      "afghanistan",
      "kabul (afghanistan)",
      "terrorism",
      "united states defense and military forces"
    ],
    "geometry": {
      "name": "Afghanistan",
      "code": "AF",
      "geometry": {
        "location": {
          "lat": 33.93911,
          "lng": 67.709953
        },
        "viewport": {
          "northeast": {
            "lat": 38.49087670000001,
            "lng": 74.8898619
          },
          "southwest": {
            "lat": 29.3772,
            "lng": 60.5170005
          }
        }
      }
    }
  },
  {
    "source": "NY Times",
    "region": "us",
    "language": "en",
    "id": "506205087823",
    "title": "America\u2019s Afghan War: A Defeat Foretold?",
    "link": "https://www.nytimes.com/2021/08/21/world/europe/afghanistan-us-history-colonial-wars.html",
    "published": "Sat, 21 Aug 2021 09:00:24 +0000",
    "tags": [
      "afghanistan war (2001- )",
      "taliban",
      "united states defense and military forces",
      "united states international relations",
      "afghanistan",
      "politics and government",
      "defense and military forces",
      "terrorism",
      "vietnam war",
      "algerian war (1954-62)",
      "de gaulle, charles",
      "france"
    ],
    "geometry": {
      "name": "Afghanistan",
      "code": "AF",
      "geometry": {
        "location": {
          "lat": 33.93911,
          "lng": 67.709953
        },
        "viewport": {
          "northeast": {
            "lat": 38.49087670000001,
            "lng": 74.8898619
          },
          "southwest": {
            "lat": 29.3772,
            "lng": 60.5170005
          }
        }
      }
    }
  },
  {
    "source": "NY Times",
    "region": "us",
    "language": "en",
    "id": "358204791066",
    "title": "The Struggle to Save a House of Music, and Its Legacy",
    "link": "https://www.nytimes.com/2021/08/21/world/africa/morocco-dar-gnawa.html",
    "published": "Sat, 21 Aug 2021 18:10:04 +0000",
    "tags": [
      "gnawa (musical genre)",
      "music",
      "historic buildings and sites",
      "jazz",
      "el gourd, abdellah",
      "tangier (morocco)",
      "morocco",
      "weston, randy"
    ],
    "geometry": {
      "name": "Morocco",
      "code": "MA",
      "geometry": {
        "location": {
          "lat": 31.791702,
          "lng": -7.092619999999999
        },
        "viewport": {
          "northeast": {
            "lat": 35.9344,
            "lng": -0.9969759
          },
          "southwest": {
            "lat": 27.6672693,
            "lng": -13.3044001
          }
        }
      }
    }
  },
  {
    "source": "NY Times",
    "region": "us",
    "language": "en",
    "id": "704249211031",
    "title": "Vietnam War Victims Seek Answers on Massacre from South Korea",
    "link": "https://www.nytimes.com/2021/08/21/world/asia/vietnam-war-south-korea-massacre.html",
    "published": "Sat, 21 Aug 2021 09:00:24 +0000",
    "tags": [
      "vietnam war",
      "south korea",
      "defense and military forces",
      "war crimes, genocide and crimes against humanity",
      "vietnam",
      "civilian casualties",
      "suits and litigation (civil)"
    ],
    "geometry": {
      "location": {
        "lat": 40.7127753,
        "lng": -74.0059728
      },
      "viewport": {
        "northeast": {
          "lat": 40.9175771,
          "lng": -73.70027209999999
        },
        "southwest": {
          "lat": 40.4773991,
          "lng": -74.25908989999999
        }
      }
    }
  },
  {
    "source": "NY Times",
    "region": "us",
    "language": "en",
    "id": "998592830005",
    "title": "Donors Send Quake Aid to Haiti, but for How Long?",
    "link": "https://www.nytimes.com/2021/08/21/world/americas/haiti-earthquake-aid.html",
    "published": "Sat, 21 Aug 2021 12:22:23 +0000",
    "tags": [
      "haiti earthquake (august, 2021)",
      "humanitarian aid",
      "mercy corps",
      "martelly, michel",
      "moise, jovenel (1968- )",
      "les cayes (haiti)",
      "haiti"
    ],
    "geometry": {
      "name": "Haiti",
      "code": "HT",
      "geometry": {
        "location": {
          "lat": 18.971187,
          "lng": -72.285215
        },
        "viewport": {
          "northeast": {
            "lat": 20.1282,
            "lng": -71.621754
          },
          "southwest": {
            "lat": 17.9422,
            "lng": -74.6082
          }
        }
      }
    }
  },
  {
    "source": "NY Times",
    "region": "us",
    "language": "en",
    "id": "653579068457",
    "title": "How the Taliban Turned Social Media Into a Tool for Control",
    "link": "https://www.nytimes.com/2021/08/20/technology/afghanistan-taliban-social-media.html",
    "published": "Fri, 20 Aug 2021 20:08:44 +0000",
    "tags": [
      "afghanistan",
      "taliban",
      "social media",
      "censorship",
      "propaganda",
      "afghanistan war (2001- )",
      "news and news media",
      "computers and the internet"
    ],
    "geometry": {
      "name": "Afghanistan",
      "code": "AF",
      "geometry": {
        "location": {
          "lat": 33.93911,
          "lng": 67.709953
        },
        "viewport": {
          "northeast": {
            "lat": 38.49087670000001,
            "lng": 74.8898619
          },
          "southwest": {
            "lat": 29.3772,
            "lng": 60.5170005
          }
        }
      }
    }
  },
  {
    "source": "NY Times",
    "region": "us",
    "language": "en",
    "id": "502628067920",
    "title": "How to Help Afghanistan Refugees and the Relief Effort",
    "link": "https://www.nytimes.com/2021/08/20/world/asia/how-to-help-afghanistan-refugees.html",
    "published": "Fri, 20 Aug 2021 22:48:13 +0000",
    "tags": [
      "afghanistan war (2001- )",
      "philanthropy",
      "refugees and displaced persons",
      "humanitarian aid",
      "content type: service",
      "afghanistan"
    ],
    "geometry": {
      "name": "Afghanistan",
      "code": "AF",
      "geometry": {
        "location": {
          "lat": 33.93911,
          "lng": 67.709953
        },
        "viewport": {
          "northeast": {
            "lat": 38.49087670000001,
            "lng": 74.8898619
          },
          "southwest": {
            "lat": 29.3772,
            "lng": 60.5170005
          }
        }
      }
    }
  },
  {
    "source": "NY Times",
    "region": "us",
    "language": "en",
    "id": "151402003423",
    "title": "\u2018My Blood Is Boiling\u2019: War Fever Surges in Ethiopia as Its Civil War Spreads",
    "link": "https://www.nytimes.com/2021/08/22/world/africa/ethiopia-civil-war-spreads.html",
    "published": "Sun, 22 Aug 2021 16:48:57 +0000",
    "tags": [
      "ethiopia",
      "addis ababa (ethiopia)",
      "tigray (ethiopia)",
      "tigrayans (ethnic group)",
      "tigray peoples liberation front",
      "ahmed, abiy",
      "erdogan, recep tayyip"
    ],
    "geometry": {
      "name": "Ethiopia",
      "code": "ET",
      "geometry": {
        "location": {
          "lat": 9.145000000000001,
          "lng": 40.489673
        },
        "viewport": {
          "northeast": {
            "lat": 14.8942141,
            "lng": 48.0010561
          },
          "southwest": {
            "lat": 3.4041369,
            "lng": 32.997734
          }
        }
      }
    }
  },
  {
    "source": "NY Times",
    "region": "us",
    "language": "en",
    "id": "909483378529",
    "title": "Defense Secretary Orders Six Commercial Airlines to Help Ferry Afghan Refugees",
    "link": "https://www.nytimes.com/2021/08/22/world/asia/afghan-refugees-commercial-airlines.html",
    "published": "Sun, 22 Aug 2021 18:40:28 +0000",
    "tags": [
      "afghanistan war (2001- )",
      "united states defense and military forces",
      "airlifts",
      "defense department",
      "middle east",
      "europe",
      "austin, lloyd j iii",
      "evacuations and evacuees",
      "military bases and installations",
      "afghanistan",
      "american airlines",
      "united airlines",
      "delta air lines inc",
      "hawaiian airlines incorporated",
      "atlas air worldwide holdings inc",
      "omni air international"
    ],
    "geometry": {
      "name": "Afghanistan",
      "code": "AF",
      "geometry": {
        "location": {
          "lat": 33.93911,
          "lng": 67.709953
        },
        "viewport": {
          "northeast": {
            "lat": 38.49087670000001,
            "lng": 74.8898619
          },
          "southwest": {
            "lat": 29.3772,
            "lng": 60.5170005
          }
        }
      }
    }
  },
  {
    "source": "NY Times",
    "region": "us",
    "language": "en",
    "id": "614339841987",
    "title": "Tony Blair, Who Led U.K. into Afghanistan, Criticizes the Pullout",
    "link": "https://www.nytimes.com/2021/08/22/world/tony-blair-afghanistan-pullout.html",
    "published": "Sun, 22 Aug 2021 16:15:36 +0000",
    "tags": [
      "afghanistan war (2001- )",
      "politics and government",
      "taliban",
      "blair, tony"
    ],
    "geometry": {
      "location": {
        "lat": 40.7127753,
        "lng": -74.0059728
      },
      "viewport": {
        "northeast": {
          "lat": 40.9175771,
          "lng": -73.70027209999999
        },
        "southwest": {
          "lat": 40.4773991,
          "lng": -74.25908989999999
        }
      }
    }
  },
  {
    "source": "NY Times",
    "region": "us",
    "language": "en",
    "id": "974282040912",
    "title": "A Rush of News: Behind The New York Times's Live Coverage",
    "link": "https://www.nytimes.com/2021/08/22/insider/live-coverage.html",
    "published": "Sun, 22 Aug 2021 04:55:48 +0000",
    "tags": [
      "news and news media",
      "newspapers",
      "new york times",
      "lacey, marc"
    ],
    "geometry": {
      "location": {
        "lat": 40.7127753,
        "lng": -74.0059728
      },
      "viewport": {
        "northeast": {
          "lat": 40.9175771,
          "lng": -73.70027209999999
        },
        "southwest": {
          "lat": 40.4773991,
          "lng": -74.25908989999999
        }
      }
    }
  },
  {
    "source": "NY Times",
    "region": "us",
    "language": "en",
    "id": "759567413317",
    "title": "Jesse Jackson and His Wife Are Hospitalized With Covid-19",
    "link": "https://www.nytimes.com/2021/08/21/us/jesse-jackson-wife-hospitalized-covid-19.html",
    "published": "Sun, 22 Aug 2021 02:11:56 +0000",
    "tags": [
      "vaccination and immunization",
      "coronavirus (2019-ncov)",
      "jackson, jesse l"
    ],
    "geometry": {
      "location": {
        "lat": 40.7127753,
        "lng": -74.0059728
      },
      "viewport": {
        "northeast": {
          "lat": 40.9175771,
          "lng": -73.70027209999999
        },
        "southwest": {
          "lat": 40.4773991,
          "lng": -74.25908989999999
        }
      }
    }
  },
  {
    "source": "NY Times",
    "region": "us",
    "language": "en",
    "id": "920139970726",
    "title": "U.S. Ready to Make Airlines Provide Planes to Speed Afghan Evacuation",
    "link": "https://www.nytimes.com/2021/08/21/world/asia/us-airline-pentagon-flight-evacuation.html",
    "published": "Sun, 22 Aug 2021 09:56:55 +0000",
    "tags": [
      "airlines and airplanes",
      "delta air lines inc",
      "united states",
      "american airlines",
      "afghanistan"
    ],
    "geometry": {
      "name": "Afghanistan",
      "code": "AF",
      "geometry": {
        "location": {
          "lat": 33.93911,
          "lng": 67.709953
        },
        "viewport": {
          "northeast": {
            "lat": 38.49087670000001,
            "lng": 74.8898619
          },
          "southwest": {
            "lat": 29.3772,
            "lng": 60.5170005
          }
        }
      }
    }
  },
  {
    "source": "NY Times",
    "region": "us",
    "language": "en",
    "id": "755539529015",
    "title": "Videos From Kabul Airport Show Injuries as Afghans Try to Enter",
    "link": "https://www.nytimes.com/2021/08/21/world/asia/videos-kabul-airport-injury.html",
    "published": "Sat, 21 Aug 2021 21:54:27 +0000",
    "tags": [
      "afghanistan",
      "defense and military forces"
    ],
    "geometry": {
      "name": "Afghanistan",
      "code": "AF",
      "geometry": {
        "location": {
          "lat": 33.93911,
          "lng": 67.709953
        },
        "viewport": {
          "northeast": {
            "lat": 38.49087670000001,
            "lng": 74.8898619
          },
          "southwest": {
            "lat": 29.3772,
            "lng": 60.5170005
          }
        }
      }
    }
  },
  {
    "source": "NY Times",
    "region": "us",
    "language": "en",
    "id": "686265311707",
    "title": "Desperation as Afghans Seek to Flee a Country Retaken by the Taliban",
    "link": "https://www.nytimes.com/2021/08/21/world/asia/afghanistan-kabul-fear-taliban.html",
    "published": "Sun, 22 Aug 2021 17:17:18 +0000",
    "tags": [
      "afghanistan",
      "afghanistan war (2001- )",
      "kabul international airport",
      "evacuations and evacuees",
      "taliban",
      "terrorism",
      "afghan national security forces",
      "kabul (afghanistan)",
      "united states defense and military forces"
    ],
    "geometry": {
      "name": "Afghanistan",
      "code": "AF",
      "geometry": {
        "location": {
          "lat": 33.93911,
          "lng": 67.709953
        },
        "viewport": {
          "northeast": {
            "lat": 38.49087670000001,
            "lng": 74.8898619
          },
          "southwest": {
            "lat": 29.3772,
            "lng": 60.5170005
          }
        }
      }
    }
  },
  {
    "source": "NY Times",
    "region": "us",
    "language": "en",
    "id": "461347032882",
    "title": "Ivermectin Should Not Be Used to Treat Covid, F.D.A. Says",
    "link": "https://www.nytimes.com/2021/08/21/world/ivermectin-fda-covid-19-treatment.html",
    "published": "Sat, 21 Aug 2021 19:25:21 +0000",
    "tags": [
      "coronavirus (2019-ncov)",
      "drugs (pharmaceuticals)",
      "vaccination and immunization",
      "mississippi",
      "food and drug administration",
      "ivermectin"
    ],
    "geometry": {
      "country": "United States",
      "geonameid": 4418478,
      "name": "Biloxi",
      "subcountry": "Mississippi",
      "geometry": {
        "location": {
          "lat": 30.3960318,
          "lng": -88.88530779999999
        },
        "viewport": {
          "northeast": {
            "lat": 30.493596,
            "lng": -88.817088
          },
          "southwest": {
            "lat": 30.359447,
            "lng": -89.034099
          }
        }
      }
    }
  },
  {
    "source": "NY Times",
    "region": "us",
    "language": "en",
    "id": "442799465010",
    "title": "Former Pence Aide Say Trump, Miller Stymied Afghan Refugee Efforts",
    "link": "https://www.nytimes.com/2021/08/21/world/asia/pence-troye-trump-miller-afghan-refugees.html",
    "published": "Sun, 22 Aug 2021 02:11:20 +0000",
    "tags": [
      "trump, donald j",
      "miller, stephen (1985- )",
      "troye, olivia",
      "afghanistan war (2001- )",
      "afghanistan",
      "refugees and displaced persons",
      "immigration and emigration"
    ],
    "geometry": {
      "name": "Afghanistan",
      "code": "AF",
      "geometry": {
        "location": {
          "lat": 33.93911,
          "lng": 67.709953
        },
        "viewport": {
          "northeast": {
            "lat": 38.49087670000001,
            "lng": 74.8898619
          },
          "southwest": {
            "lat": 29.3772,
            "lng": 60.5170005
          }
        }
      }
    }
  },
  {
    "source": "NY Times",
    "region": "us",
    "language": "en",
    "id": "738746237487",
    "title": "A Guide to Covid Vaccine Booster Shots",
    "link": "https://www.nytimes.com/2021/08/21/science/covid-vaccine-booster-third-shot.html",
    "published": "Sat, 21 Aug 2021 20:38:48 +0000",
    "tags": [
      "vaccination and immunization",
      "coronavirus (2019-ncov)",
      "disease rates"
    ],
    "geometry": {
      "location": {
        "lat": 40.7127753,
        "lng": -74.0059728
      },
      "viewport": {
        "northeast": {
          "lat": 40.9175771,
          "lng": -73.70027209999999
        },
        "southwest": {
          "lat": 40.4773991,
          "lng": -74.25908989999999
        }
      }
    }
  },
  {
    "source": "NY Times",
    "region": "us",
    "language": "en",
    "id": "940269116436",
    "title": "Resistance fighters drive Taliban from 3 districts in the mountains north of Kabul.",
    "link": "https://www.nytimes.com/2021/08/21/world/asia/resistance-fighters-taliban-afghanistan.html",
    "published": "Sat, 21 Aug 2021 22:22:28 +0000",
    "tags": [
      "afghanistan war (2001- )",
      "taliban",
      "afghanistan",
      "panjshir valley (afghanistan)"
    ],
    "geometry": {
      "name": "Afghanistan",
      "code": "AF",
      "geometry": {
        "location": {
          "lat": 33.93911,
          "lng": 67.709953
        },
        "viewport": {
          "northeast": {
            "lat": 38.49087670000001,
            "lng": 74.8898619
          },
          "southwest": {
            "lat": 29.3772,
            "lng": 60.5170005
          }
        }
      }
    }
  },
  {
    "source": "NY Times",
    "region": "us",
    "language": "en",
    "id": "538494836044",
    "title": "Situation at Kabul's Airport Worsens as Diplomats Warn of Threats",
    "link": "https://www.nytimes.com/2021/08/21/world/asia/kabul-airport-afghanistan-security.html",
    "published": "Sat, 21 Aug 2021 21:54:43 +0000",
    "tags": [
      "kabul (afghanistan)",
      "afghanistan",
      "afghanistan war (2001- )",
      "state department",
      "defense department"
    ],
    "geometry": {
      "name": "Afghanistan",
      "code": "AF",
      "geometry": {
        "location": {
          "lat": 33.93911,
          "lng": 67.709953
        },
        "viewport": {
          "northeast": {
            "lat": 38.49087670000001,
            "lng": 74.8898619
          },
          "southwest": {
            "lat": 29.3772,
            "lng": 60.5170005
          }
        }
      }
    }
  },
  {
    "source": "NY Times",
    "region": "us",
    "language": "en",
    "id": "899390135538",
    "title": "Taliban Leader Baradar Returns to Kabul Aiming to Form Government",
    "link": "https://www.nytimes.com/2021/08/21/world/asia/taliban-baradar-kabul-afghanistan.html",
    "published": "Sun, 22 Aug 2021 00:56:28 +0000",
    "tags": [
      "afghanistan war (2001- )",
      "taliban",
      "baradar, abdul ghani",
      "kabul (afghanistan)",
      "afghanistan"
    ],
    "geometry": {
      "name": "Afghanistan",
      "code": "AF",
      "geometry": {
        "location": {
          "lat": 33.93911,
          "lng": 67.709953
        },
        "viewport": {
          "northeast": {
            "lat": 38.49087670000001,
            "lng": 74.8898619
          },
          "southwest": {
            "lat": 29.3772,
            "lng": 60.5170005
          }
        }
      }
    }
  },
  {
    "source": "NY Times",
    "region": "us",
    "language": "en",
    "id": "600935780985",
    "title": "Protests Against Covid Restrictions Turn Violent in Melbourne, Australia",
    "link": "https://www.nytimes.com/2021/08/21/world/australia/melbourne-protests-covid-restrictions.html",
    "published": "Sat, 21 Aug 2021 15:06:27 +0000",
    "tags": [
      "demonstrations, protests and riots",
      "coronavirus (2019-ncov)",
      "vaccination and immunization",
      "australia",
      "melbourne (australia)"
    ],
    "geometry": {
      "name": "Australia",
      "code": "AU",
      "geometry": {
        "location": {
          "lat": -25.274398,
          "lng": 133.775136
        },
        "viewport": {
          "northeast": {
            "lat": -0.6911343999999999,
            "lng": 166.7429167
          },
          "southwest": {
            "lat": -51.66332320000001,
            "lng": 100.0911072
          }
        }
      }
    }
  },
  {
    "source": "NY Times",
    "region": "us",
    "language": "en",
    "id": "531888371214",
    "title": "A Century After the Titanic Sank, a Film Tries to Rescue 6 Survivors\u2019 Stories",
    "link": "https://www.nytimes.com/2021/08/21/world/chinese-titanic-survivors-the-six.html",
    "published": "Sat, 21 Aug 2021 13:00:09 +0000",
    "tags": [
      "documentary films and programs",
      "the six (movie)",
      "jones, arthur (filmmaker)",
      "titanic (ship)",
      "maritime accidents and safety",
      "immigration and emigration",
      "discrimination",
      "china",
      "great britain",
      "united states"
    ],
    "geometry": {
      "name": "China",
      "code": "CN",
      "geometry": {
        "location": {
          "lat": 35.86166,
          "lng": 104.195397
        },
        "viewport": {
          "northeast": {
            "lat": 53.5609739,
            "lng": 134.7754563
          },
          "southwest": {
            "lat": 17.9996,
            "lng": 73.4994136
          }
        }
      }
    }
  },
  {
    "source": "NY Times",
    "region": "us",
    "language": "en",
    "id": "877472450521",
    "title": "Afghanistan Faces Economic Shock as Sanctions Replace Foreign Aid",
    "link": "https://www.nytimes.com/2021/08/21/business/afghanistan-economy.html",
    "published": "Sat, 21 Aug 2021 16:37:32 +0000",
    "tags": [
      "afghanistan",
      "taliban",
      "politics and government",
      "economic conditions and trends",
      "afghanistan war (2001- )",
      "embargoes and sanctions",
      "humanitarian aid",
      "foreign aid",
      "international relations",
      "united states international relations",
      "republican party",
      "international monetary fund",
      "world bank",
      "treasury department",
      "security council (un)",
      "united nations"
    ],
    "geometry": {
      "name": "Afghanistan",
      "code": "AF",
      "geometry": {
        "location": {
          "lat": 33.93911,
          "lng": 67.709953
        },
        "viewport": {
          "northeast": {
            "lat": 38.49087670000001,
            "lng": 74.8898619
          },
          "southwest": {
            "lat": 29.3772,
            "lng": 60.5170005
          }
        }
      }
    }
  },
  {
    "source": "NY Times",
    "region": "us",
    "language": "en",
    "id": "919723186428",
    "title": "Biden\u2019s Inaccurate Claims in Defending Afghanistan Withdrawal",
    "link": "https://www.nytimes.com/2021/08/20/us/politics/biden-afghanistan-fact-check.html",
    "published": "Sat, 21 Aug 2021 12:44:58 +0000",
    "tags": [
      "biden, joseph r jr",
      "afghanistan",
      "afghanistan war (2001- )",
      "united states defense and military forces",
      "united states international relations",
      "united states politics and government",
      "rumors and misinformation",
      "kabul international airport",
      "al qaeda",
      "taliban"
    ],
    "geometry": {
      "name": "Afghanistan",
      "code": "AF",
      "geometry": {
        "location": {
          "lat": 33.93911,
          "lng": 67.709953
        },
        "viewport": {
          "northeast": {
            "lat": 38.49087670000001,
            "lng": 74.8898619
          },
          "southwest": {
            "lat": 29.3772,
            "lng": 60.5170005
          }
        }
      }
    }
  },
  {
    "source": "NY Times",
    "region": "us",
    "language": "en",
    "id": "047442967936",
    "title": "A Baby Passed Over a Wall in Kabul Is Reunited With Family",
    "link": "https://www.nytimes.com/2021/08/20/world/asia/afghanistan-kabul-baby.html",
    "published": "Sat, 21 Aug 2021 18:24:19 +0000",
    "tags": [
      "afghanistan war (2001- )",
      "evacuations and evacuees",
      "united states defense and military forces",
      "kabul international airport"
    ],
    "geometry": {
      "location": {
        "lat": 40.7127753,
        "lng": -74.0059728
      },
      "viewport": {
        "northeast": {
          "lat": 40.9175771,
          "lng": -73.70027209999999
        },
        "southwest": {
          "lat": 40.4773991,
          "lng": -74.25908989999999
        }
      }
    }
  },
  {
    "source": "NY Times",
    "region": "us",
    "language": "en",
    "id": "279898130513",
    "title": "Biden Defends Evacuation as Thousands Besiege Kabul Airport",
    "link": "https://www.nytimes.com/2021/08/20/world/asia/biden-afghanistan-evacuation-kabul-airport.html",
    "published": "Sat, 21 Aug 2021 20:00:21 +0000",
    "tags": [
      "afghanistan",
      "taliban",
      "airlifts",
      "evacuations and evacuees",
      "kabul international airport",
      "afghanistan war (2001- )",
      "biden, joseph r jr",
      "united states international relations",
      "united states defense and military forces",
      "diplomatic service, embassies and consulates"
    ],
    "geometry": {
      "name": "Afghanistan",
      "code": "AF",
      "geometry": {
        "location": {
          "lat": 33.93911,
          "lng": 67.709953
        },
        "viewport": {
          "northeast": {
            "lat": 38.49087670000001,
            "lng": 74.8898619
          },
          "southwest": {
            "lat": 29.3772,
            "lng": 60.5170005
          }
        }
      }
    }
  },
  {
    "source": "NY Times",
    "region": "us",
    "language": "en",
    "id": "551864457055",
    "title": "As Canada Awaits a New Group of Refugees, Questions Loom",
    "link": "https://www.nytimes.com/2021/08/20/world/canada/canada-afghanistan-refugees.html",
    "published": "Sun, 22 Aug 2021 15:39:46 +0000",
    "tags": [
      "evacuations and evacuees",
      "afghanistan war (2001- )",
      "immigration and emigration",
      "humanitarian aid",
      "politics and government",
      "taliban",
      "trudeau, justin",
      "afghanistan",
      "canada"
    ],
    "geometry": {
      "name": "Afghanistan",
      "code": "AF",
      "geometry": {
        "location": {
          "lat": 33.93911,
          "lng": 67.709953
        },
        "viewport": {
          "northeast": {
            "lat": 38.49087670000001,
            "lng": 74.8898619
          },
          "southwest": {
            "lat": 29.3772,
            "lng": 60.5170005
          }
        }
      }
    }
  },
  {
    "source": "NY Times",
    "region": "us",
    "language": "en",
    "id": "543711019485",
    "title": "Evgeny Sveshnikov, Grandmaster and Theorist of Chess, Dies at 71",
    "link": "https://www.nytimes.com/2021/08/20/world/europe/evgeny-sveshnikov-dead.html",
    "published": "Sat, 21 Aug 2021 20:56:29 +0000",
    "tags": [
      "sveshnikov, evgeny (1950-2021)",
      "chess",
      "deaths (obituaries)",
      "chelyabinsk (russia)"
    ],
    "geometry": {
      "location": {
        "lat": 40.7127753,
        "lng": -74.0059728
      },
      "viewport": {
        "northeast": {
          "lat": 40.9175771,
          "lng": -73.70027209999999
        },
        "southwest": {
          "lat": 40.4773991,
          "lng": -74.25908989999999
        }
      }
    }
  },
  {
    "source": "NY Times",
    "region": "us",
    "language": "en",
    "id": "229280616195",
    "title": "\u2018My Dreams Died\u2019: On Kabul\u2019s Streets With a Woman Protest Leader",
    "link": "https://www.nytimes.com/video/world/middleeast/100000007931429/afghanistan-protests-kabul-women.html",
    "published": "Sat, 21 Aug 2021 15:29:27 +0000",
    "tags": [
      "womens rights",
      "taliban",
      "afghanistan",
      "kabul (afghanistan)",
      "demonstrations, protests and riots",
      "politics and government"
    ],
    "geometry": {
      "name": "Afghanistan",
      "code": "AF",
      "geometry": {
        "location": {
          "lat": 33.93911,
          "lng": 67.709953
        },
        "viewport": {
          "northeast": {
            "lat": 38.49087670000001,
            "lng": 74.8898619
          },
          "southwest": {
            "lat": 29.3772,
            "lng": 60.5170005
          }
        }
      }
    }
  },
  {
    "source": "NY Times",
    "region": "us",
    "language": "en",
    "id": "497392677072",
    "title": "Dr. Gino Strada, Who Brought Health Care to the Desperate, Dies at 73",
    "link": "https://www.nytimes.com/2021/08/20/world/europe/gino-strada-dead.html",
    "published": "Sat, 21 Aug 2021 09:46:44 +0000",
    "tags": [
      "strada, gino",
      "deaths (obituaries)",
      "medicine and health",
      "emergency - life support for civilian victims of war and poverty",
      "emergency medical treatment",
      "afghanistan war (2001- )",
      "surgery and surgeons",
      "hospitals",
      "humanitarian aid",
      "war and armed conflicts",
      "civilian casualties"
    ],
    "geometry": {
      "location": {
        "lat": 40.7127753,
        "lng": -74.0059728
      },
      "viewport": {
        "northeast": {
          "lat": 40.9175771,
          "lng": -73.70027209999999
        },
        "southwest": {
          "lat": 40.4773991,
          "lng": -74.25908989999999
        }
      }
    }
  },
  {
    "source": "NY Times",
    "region": "us",
    "language": "en",
    "id": "785330336544",
    "title": "Putin Takes Shot at West, but Says He\u2019ll Work to \u2018Normalize\u2019 Afghanistan",
    "link": "https://www.nytimes.com/2021/08/20/world/europe/putin-afghanistan-merkel.html",
    "published": "Fri, 20 Aug 2021 19:11:02 +0000",
    "tags": [
      "putin, vladimir v",
      "merkel, angela",
      "politics and government",
      "news and news media",
      "navalny, aleksei a",
      "afghanistan",
      "germany",
      "russia"
    ],
    "geometry": {
      "name": "Afghanistan",
      "code": "AF",
      "geometry": {
        "location": {
          "lat": 33.93911,
          "lng": 67.709953
        },
        "viewport": {
          "northeast": {
            "lat": 38.49087670000001,
            "lng": 74.8898619
          },
          "southwest": {
            "lat": 29.3772,
            "lng": 60.5170005
          }
        }
      }
    }
  },
  {
    "source": "NY Times",
    "region": "us",
    "language": "en",
    "id": "112718102131",
    "title": "Patience Runs Thin in Haiti Quake Zone as Fights Erupt for Cash and Food",
    "link": "https://www.nytimes.com/2021/08/20/world/americas/haiti-quake-aid-fights.html",
    "published": "Sat, 21 Aug 2021 02:56:12 +0000",
    "tags": [
      "haiti earthquake (august, 2021)",
      "earthquakes",
      "martelly, michel",
      "moise, jovenel (1968- )",
      "haiti"
    ],
    "geometry": {
      "name": "Haiti",
      "code": "HT",
      "geometry": {
        "location": {
          "lat": 18.971187,
          "lng": -72.285215
        },
        "viewport": {
          "northeast": {
            "lat": 20.1282,
            "lng": -71.621754
          },
          "southwest": {
            "lat": 17.9422,
            "lng": -74.6082
          }
        }
      }
    }
  },
  {
    "source": "NY Times",
    "region": "us",
    "language": "en",
    "id": "479817879066",
    "title": "Biden Tries to Restore Calm Amid Chaos in Kabul",
    "link": "https://www.nytimes.com/2021/08/20/world/asia/biden-afghanistan-kabul.html",
    "published": "Sun, 22 Aug 2021 14:21:51 +0000",
    "tags": [
      "afghanistan war (2001- )",
      "united states politics and government",
      "evacuations and evacuees",
      "airport security",
      "taliban",
      "biden, joseph r jr"
    ],
    "geometry": {
      "location": {
        "lat": 40.7127753,
        "lng": -74.0059728
      },
      "viewport": {
        "northeast": {
          "lat": 40.9175771,
          "lng": -73.70027209999999
        },
        "southwest": {
          "lat": 40.4773991,
          "lng": -74.25908989999999
        }
      }
    }
  },
  {
    "source": "NY Times",
    "region": "us",
    "language": "en",
    "id": "847375960694",
    "title": "Nando's, a Restaurant Chain, Struggles with Chicken Shortage",
    "link": "https://www.nytimes.com/2021/08/20/world/europe/nandos-chicken-shortage-closures-britain.html",
    "published": "Sun, 22 Aug 2021 16:06:50 +0000",
    "tags": [
      "shortages",
      "poultry",
      "coronavirus (2019-ncov)",
      "restaurants",
      "franchises",
      "shutdowns (institutional)",
      "great britain withdrawal from eu (brexit)",
      "great britain",
      "nandos restaurant group inc"
    ],
    "geometry": {
      "location": {
        "lat": 40.7127753,
        "lng": -74.0059728
      },
      "viewport": {
        "northeast": {
          "lat": 40.9175771,
          "lng": -73.70027209999999
        },
        "southwest": {
          "lat": 40.4773991,
          "lng": -74.25908989999999
        }
      }
    }
  },
  {
    "source": "NY Times",
    "region": "us",
    "language": "en",
    "id": "547518021379",
    "title": "Nicole Kidman Skipped Quarantine in Hong Kong. Residents Were Angry.",
    "link": "https://www.nytimes.com/2021/08/20/world/asia/nicole-kidman-hong-kong.html",
    "published": "Fri, 20 Aug 2021 17:09:54 +0000",
    "tags": [
      "coronavirus (2019-ncov)",
      "quarantines",
      "travel warnings",
      "income inequality",
      "television",
      "actors and actresses",
      "kidman, nicole",
      "hong kong",
      "amazon.com inc"
    ],
    "geometry": {
      "country": "Hong Kong",
      "geonameid": 1819729,
      "name": "Hong Kong",
      "subcountry": "Central and Western",
      "geometry": {
        "location": {
          "lat": 22.3193039,
          "lng": 114.1693611
        },
        "viewport": {
          "northeast": {
            "lat": 22.5619469,
            "lng": 114.4294999
          },
          "southwest": {
            "lat": 22.1435,
            "lng": 113.8259001
          }
        }
      }
    }
  },
  {
    "source": "NY Times",
    "region": "us",
    "language": "en",
    "id": "684590344965",
    "title": "\u2018Our Goal Is to Keep the Regime on Its Toes\u2019: Inside Belarus\u2019s Underground Opposition",
    "link": "https://www.nytimes.com/2021/08/20/world/europe/belarus-opposition-protests.html",
    "published": "Fri, 20 Aug 2021 16:44:29 +0000",
    "tags": [
      "belarus",
      "lukashenko, aleksandr g",
      "politics and government",
      "demonstrations, protests and riots",
      "political prisoners",
      "human rights and human rights violations",
      "deaths (fatalities)"
    ],
    "geometry": {
      "name": "Belarus",
      "code": "BY",
      "geometry": {
        "location": {
          "lat": 53.709807,
          "lng": 27.953389
        },
        "viewport": {
          "northeast": {
            "lat": 56.1718719,
            "lng": 32.7768202
          },
          "southwest": {
            "lat": 51.26201100000001,
            "lng": 23.1783377
          }
        }
      }
    }
  },
  {
    "source": "NY Times",
    "region": "us",
    "language": "en",
    "id": "073402376479",
    "title": "\u2018Super Taster\u2019 Who Lost Sense of Smell Is Helping Italians Regain It",
    "link": "https://www.nytimes.com/2021/08/20/world/europe/italy-coronavirus-sense-of-smell.html",
    "published": "Fri, 20 Aug 2021 15:52:12 +0000",
    "tags": [
      "crippa, michele",
      "italy",
      "taste",
      "smell (olfaction)",
      "food",
      "restaurants",
      "content type: personal profile",
      "coronavirus (2019-ncov)",
      "chronic condition (health)"
    ],
    "geometry": {
      "name": "Italy",
      "code": "IT",
      "geometry": {
        "location": {
          "lat": 41.87194,
          "lng": 12.56738
        },
        "viewport": {
          "northeast": {
            "lat": 47.092,
            "lng": 18.7975999
          },
          "southwest": {
            "lat": 35.4897,
            "lng": 6.6267201
          }
        }
      }
    }
  },
  {
    "source": "NY Times",
    "region": "us",
    "language": "en",
    "id": "329509543848",
    "title": "N.Y.C. Imposes Vaccine Mandate for High School Athletes",
    "link": "https://www.nytimes.com/2021/08/20/nyregion/nyc-high-school-athletes-vaccine-mandate.html",
    "published": "Fri, 20 Aug 2021 15:51:45 +0000",
    "tags": [
      "interscholastic athletics",
      "vaccination and immunization",
      "athletics and sports",
      "de blasio, bill",
      "new york city",
      "coronavirus (2019-ncov)"
    ],
    "geometry": {
      "country": "United States",
      "geonameid": 5128581,
      "name": "New York City",
      "subcountry": "New York",
      "geometry": {
        "location": {
          "lat": 40.7127753,
          "lng": -74.0059728
        },
        "viewport": {
          "northeast": {
            "lat": 40.9175771,
            "lng": -73.70027209999999
          },
          "southwest": {
            "lat": 40.4773991,
            "lng": -74.25908989999999
          }
        }
      }
    }
  },
  {
    "source": "NY Times",
    "region": "us",
    "language": "en",
    "id": "824497503173",
    "title": "Afghans are aiding Americans in keeping the tumult outside from swamping the airport.",
    "link": "https://www.nytimes.com/2021/08/20/world/asia/afghans-are-aiding-americans-in-keeping-the-tumult-outside-from-swamping-the-airport.html",
    "published": "Fri, 20 Aug 2021 22:29:19 +0000",
    "tags": [
      "afghans"
    ],
    "geometry": {
      "location": {
        "lat": 40.7127753,
        "lng": -74.0059728
      },
      "viewport": {
        "northeast": {
          "lat": 40.9175771,
          "lng": -73.70027209999999
        },
        "southwest": {
          "lat": 40.4773991,
          "lng": -74.25908989999999
        }
      }
    }
  },
  {
    "source": "NY Times",
    "region": "us",
    "language": "en",
    "id": "445767002753",
    "title": "Facebook Hides Friends Lists to Protect Users in Afghanistan",
    "link": "https://www.nytimes.com/2021/08/20/world/asia/afghanistan-facebook.html",
    "published": "Fri, 20 Aug 2021 11:46:00 +0000",
    "tags": [
      "facebook inc",
      "taliban",
      "social media",
      "computer security",
      "afghanistan"
    ],
    "geometry": {
      "name": "Afghanistan",
      "code": "AF",
      "geometry": {
        "location": {
          "lat": 33.93911,
          "lng": 67.709953
        },
        "viewport": {
          "northeast": {
            "lat": 38.49087670000001,
            "lng": 74.8898619
          },
          "southwest": {
            "lat": 29.3772,
            "lng": 60.5170005
          }
        }
      }
    }
  },
  {
    "source": "NY Times",
    "region": "us",
    "language": "en",
    "id": "667646917116",
    "title": "The Polarized Publishing World",
    "link": "https://www.nytimes.com/2021/08/20/briefing/publishing-Taliban-drought.html",
    "published": "Fri, 20 Aug 2021 10:56:08 +0000",
    "tags": [
      "polarized"
    ],
    "geometry": {
      "location": {
        "lat": 40.7127753,
        "lng": -74.0059728
      },
      "viewport": {
        "northeast": {
          "lat": 40.9175771,
          "lng": -73.70027209999999
        },
        "southwest": {
          "lat": 40.4773991,
          "lng": -74.25908989999999
        }
      }
    }
  },
  {
    "source": "NY Times",
    "region": "us",
    "language": "en",
    "id": "771576180937",
    "title": "Hong Kong's Tough Covid Travel Rules Just Got Tougher",
    "link": "https://www.nytimes.com/2021/08/20/world/asia/hong-kong-nicole-kidman.html",
    "published": "Fri, 20 Aug 2021 10:33:09 +0000",
    "tags": [
      "hong kong",
      "coronavirus (2019-ncov)",
      "quarantines",
      "kidman, nicole"
    ],
    "geometry": {
      "country": "Hong Kong",
      "geonameid": 1819729,
      "name": "Hong Kong",
      "subcountry": "Central and Western",
      "geometry": {
        "location": {
          "lat": 22.3193039,
          "lng": 114.1693611
        },
        "viewport": {
          "northeast": {
            "lat": 22.5619469,
            "lng": 114.4294999
          },
          "southwest": {
            "lat": 22.1435,
            "lng": 113.8259001
          }
        }
      }
    }
  },
  {
    "source": "NY Times",
    "region": "us",
    "language": "en",
    "id": "430712714042",
    "title": "Chronicling a Day in Kabul as Taliban Cement Their Rule",
    "link": "https://www.nytimes.com/2021/08/20/world/asia/afghanistan-kabul-dispatch.html",
    "published": "Fri, 20 Aug 2021 17:13:18 +0000",
    "tags": [
      "muslims and islam",
      "taliban",
      "kabul (afghanistan)"
    ],
    "geometry": {
      "location": {
        "lat": 40.7127753,
        "lng": -74.0059728
      },
      "viewport": {
        "northeast": {
          "lat": 40.9175771,
          "lng": -73.70027209999999
        },
        "southwest": {
          "lat": 40.4773991,
          "lng": -74.25908989999999
        }
      }
    }
  },
  {
    "source": "NY Times",
    "region": "us",
    "language": "en",
    "id": "913731422768",
    "title": "1946: Vatican Newspaper Denounces a Pistol Duel",
    "link": "https://www.nytimes.com/2021/08/20/world/europe/vatican-newspaper-duels.html",
    "published": "Fri, 20 Aug 2021 09:00:06 +0000",
    "tags": [
      "duels and dueling",
      "italy",
      "rome (italy)",
      "roman catholic church"
    ],
    "geometry": {
      "name": "Italy",
      "code": "IT",
      "geometry": {
        "location": {
          "lat": 41.87194,
          "lng": 12.56738
        },
        "viewport": {
          "northeast": {
            "lat": 47.092,
            "lng": 18.7975999
          },
          "southwest": {
            "lat": 35.4897,
            "lng": 6.6267201
          }
        }
      }
    }
  },
  {
    "source": "NY Times",
    "region": "us",
    "language": "en",
    "id": "476267094438",
    "title": "Some former Trump allies say his Taliban deal laid the groundwork for chaos.",
    "link": "https://www.nytimes.com/2021/08/20/world/some-former-trump-allies-say-his-taliban-deal-laid-the-groundwork-for-chaos.html",
    "published": "Fri, 20 Aug 2021 08:30:41 +0000",
    "tags": [
      "trump",
      "taliban"
    ],
    "geometry": {
      "location": {
        "lat": 40.7127753,
        "lng": -74.0059728
      },
      "viewport": {
        "northeast": {
          "lat": 40.9175771,
          "lng": -73.70027209999999
        },
        "southwest": {
          "lat": 40.4773991,
          "lng": -74.25908989999999
        }
      }
    }
  },
  {
    "source": "NY Times",
    "region": "us",
    "language": "en",
    "id": "156139406782",
    "title": "Australia Is Betting on Remote Quarantine. Here\u2019s What I Learned on the Inside.",
    "link": "https://www.nytimes.com/2021/08/20/world/australia/howard-springs-quarantine.html",
    "published": "Fri, 20 Aug 2021 08:19:16 +0000",
    "tags": [
      "quarantines",
      "coronavirus (2019-ncov)",
      "australia"
    ],
    "geometry": {
      "name": "Australia",
      "code": "AU",
      "geometry": {
        "location": {
          "lat": -25.274398,
          "lng": 133.775136
        },
        "viewport": {
          "northeast": {
            "lat": -0.6911343999999999,
            "lng": 166.7429167
          },
          "southwest": {
            "lat": -51.66332320000001,
            "lng": 100.0911072
          }
        }
      }
    }
  },
  {
    "source": "NY Times",
    "region": "us",
    "language": "en",
    "id": "489352525747",
    "title": "Pyae Lyan Aung, Myanmar Soccer Player, Wins Asylum in Japan",
    "link": "https://www.nytimes.com/2021/08/20/world/asia/japan-soccer-player-myanmar-asylum.html",
    "published": "Sat, 21 Aug 2021 03:01:22 +0000",
    "tags": [
      "japan",
      "myanmar",
      "pyae lyan aung",
      "asylum, right of",
      "coups detat and attempted coups detat",
      "osaka (japan)"
    ],
    "geometry": {
      "name": "Japan",
      "code": "JP",
      "geometry": {
        "location": {
          "lat": 36.204824,
          "lng": 138.252924
        },
        "viewport": {
          "northeast": {
            "lat": 45.6412626,
            "lng": 154.0031455
          },
          "southwest": {
            "lat": 20.3585295,
            "lng": 122.8554688
          }
        }
      }
    }
  },
  {
    "source": "NY Times",
    "region": "us",
    "language": "en",
    "id": "929563228947",
    "title": "South Koreans Now Dislike China More Than They Dislike Japan",
    "link": "https://www.nytimes.com/2021/08/20/world/asia/korea-china-election-young-voters.html",
    "published": "Fri, 20 Aug 2021 07:00:15 +0000",
    "tags": [
      "south korea",
      "china",
      "politics and government",
      "international relations",
      "defense and military forces",
      "economic conditions and trends",
      "elections",
      "polls and public opinion",
      "voting and voters",
      "millennial generation",
      "youth",
      "people power party",
      "moon jae-in",
      "xi jinping"
    ],
    "geometry": {
      "name": "China",
      "code": "CN",
      "geometry": {
        "location": {
          "lat": 35.86166,
          "lng": 104.195397
        },
        "viewport": {
          "northeast": {
            "lat": 53.5609739,
            "lng": 134.7754563
          },
          "southwest": {
            "lat": 17.9996,
            "lng": 73.4994136
          }
        }
      }
    }
  },
  {
    "source": "NY Times",
    "region": "us",
    "language": "en",
    "id": "845921762674",
    "title": "Struggling to Explain Australia\u2019s Covid Reality",
    "link": "https://www.nytimes.com/2021/08/20/world/australia/struggling-to-explain-australias-covid-reality.html",
    "published": "Fri, 20 Aug 2021 05:55:33 +0000",
    "tags": [
      "australia",
      "coronavirus (2019-ncov)"
    ],
    "geometry": {
      "name": "Australia",
      "code": "AU",
      "geometry": {
        "location": {
          "lat": -25.274398,
          "lng": 133.775136
        },
        "viewport": {
          "northeast": {
            "lat": -0.6911343999999999,
            "lng": 166.7429167
          },
          "southwest": {
            "lat": -51.66332320000001,
            "lng": 100.0911072
          }
        }
      }
    }
  },
  {
    "source": "NY Times",
    "region": "us",
    "language": "en",
    "id": "360845237068",
    "title": "Your Friday Briefing",
    "link": "https://www.nytimes.com/2021/08/19/briefing/taliban-coronavirus-wildfires.html",
    "published": "Fri, 20 Aug 2021 03:35:50 +0000",
    "tags": [
      "your",
      "briefing"
    ],
    "geometry": {
      "location": {
        "lat": 40.7127753,
        "lng": -74.0059728
      },
      "viewport": {
        "northeast": {
          "lat": 40.9175771,
          "lng": -73.70027209999999
        },
        "southwest": {
          "lat": 40.4773991,
          "lng": -74.25908989999999
        }
      }
    }
  },
  {
    "source": "NY Times",
    "region": "us",
    "language": "en",
    "id": "794733697545",
    "title": "President Biden to Speak on Afghan Evacuation Effort",
    "link": "https://www.nytimes.com/2021/08/19/world/asia/biden-speech-evacuation.html",
    "published": "Fri, 20 Aug 2021 02:47:01 +0000",
    "tags": [
      "biden, joseph r jr",
      "afghanistan war (2001- )",
      "afghanistan",
      "kabul (afghanistan)",
      "taliban"
    ],
    "geometry": {
      "name": "Afghanistan",
      "code": "AF",
      "geometry": {
        "location": {
          "lat": 33.93911,
          "lng": 67.709953
        },
        "viewport": {
          "northeast": {
            "lat": 38.49087670000001,
            "lng": 74.8898619
          },
          "southwest": {
            "lat": 29.3772,
            "lng": 60.5170005
          }
        }
      }
    }
  },
  {
    "source": "Der Spiegel - International",
    "region": "de",
    "language": "en",
    "id": "766621378492",
    "title": "The Entirely Predictable Failure of the West's Mission in Afghanistan",
    "link": "https://www.spiegel.de/international/world/the-trillion-dollar-illusion-the-entirely-predictable-failure-of-the-west-s-mission-in-afghanistan-a-0193fa9c-aa6f-4719-84de-01ead3aefcf6#ref=rss",
    "published": "Fri, 20 Aug 2021 18:49:11 +0200",
    "tags": [
      "entirely",
      "predictable failure",
      "mission",
      "afghanistan"
    ],
    "geometry": {
      "name": "Afghanistan",
      "code": "AF",
      "geometry": {
        "location": {
          "lat": 33.93911,
          "lng": 67.709953
        },
        "viewport": {
          "northeast": {
            "lat": 38.49087670000001,
            "lng": 74.8898619
          },
          "southwest": {
            "lat": 29.3772,
            "lng": 60.5170005
          }
        }
      }
    }
  },
  {
    "source": "Der Spiegel - International",
    "region": "de",
    "language": "en",
    "id": "364818789932",
    "title": "A Chronicle of German Failures in Afghanistan: \"Takeover of Kabul Unlikely Before 9/11\"",
    "link": "https://www.spiegel.de/international/germany/takeover-of-kabul-unlikely-before-9-11-a-chronicle-of-german-failures-in-afghanistan-a-d954eee2-f72d-4125-a6d5-90d3d774a422#ref=rss",
    "published": "Fri, 20 Aug 2021 17:56:01 +0200",
    "tags": [
      "failures",
      "afghanistan",
      "takeover",
      "kabul unlikely"
    ],
    "geometry": {
      "name": "Afghanistan",
      "code": "AF",
      "geometry": {
        "location": {
          "lat": 33.93911,
          "lng": 67.709953
        },
        "viewport": {
          "northeast": {
            "lat": 38.49087670000001,
            "lng": 74.8898619
          },
          "southwest": {
            "lat": 29.3772,
            "lng": 60.5170005
          }
        }
      }
    }
  },
  {
    "source": "Der Spiegel - International",
    "region": "de",
    "language": "en",
    "id": "523087825957",
    "title": "A Refugee Returns to Northern Cyprus After 47 Years",
    "link": "https://www.spiegel.de/international/europe/an-expellee-returns-to-northern-cyprus-after-47-years-a-664be1fc-7020-45a0-9af3-e4af2233f517#ref=rss",
    "published": "Thu, 19 Aug 2021 12:40:50 +0200",
    "tags": [
      "refugee returns",
      "cyprus",
      "years"
    ],
    "geometry": {
      "name": "Cyprus",
      "code": "CY",
      "geometry": {
        "location": {
          "lat": 35.126413,
          "lng": 33.429859
        },
        "viewport": {
          "northeast": {
            "lat": 35.7071999,
            "lng": 34.60450000000001
          },
          "southwest": {
            "lat": 34.6304001,
            "lng": 32.2459
          }
        }
      }
    }
  },
  {
    "source": "Der Spiegel - International",
    "region": "de",
    "language": "en",
    "id": "769801049845",
    "title": "Local Hires Stranded in Afghanistan: \"They Don't Care About My Life!\"",
    "link": "https://www.spiegel.de/international/world/local-hires-stranded-in-afghanistan-they-don-t-care-about-my-life-a-7f755418-7fde-4c86-a6e8-0d8bb86bb7e5#ref=rss",
    "published": "Wed, 18 Aug 2021 16:51:27 +0200",
    "tags": [
      "hires stranded",
      "afghanistan",
      "care"
    ],
    "geometry": {
      "name": "Afghanistan",
      "code": "AF",
      "geometry": {
        "location": {
          "lat": 33.93911,
          "lng": 67.709953
        },
        "viewport": {
          "northeast": {
            "lat": 38.49087670000001,
            "lng": 74.8898619
          },
          "southwest": {
            "lat": 29.3772,
            "lng": 60.5170005
          }
        }
      }
    }
  },
  {
    "source": "Der Spiegel - International",
    "region": "de",
    "language": "en",
    "id": "676440888442",
    "title": "Stewing Conflict Between German High Court and the EU Could Boil Over",
    "link": "https://www.spiegel.de/international/europe/stewing-conflict-between-german-high-court-and-the-eu-could-boil-over-a-f0b9c9bb-de7a-4dd0-9585-7698a2ffd8c2#ref=rss",
    "published": "Wed, 18 Aug 2021 10:18:38 +0200",
    "tags": [
      "stewing",
      "german high court",
      "eu",
      "boil"
    ],
    "geometry": {
      "location": {
        "lat": 53.5510846,
        "lng": 9.9936819
      },
      "viewport": {
        "northeast": {
          "lat": 53.717145,
          "lng": 10.123492
        },
        "southwest": {
          "lat": 53.399999,
          "lng": 9.732151000000002
        }
      }
    }
  },
  {
    "source": "Der Spiegel - International",
    "region": "de",
    "language": "en",
    "id": "253173160800",
    "title": "Lukashenko's Revenge: How Belarus Is Funneling Refugees into the EU",
    "link": "https://www.spiegel.de/international/europe/lukashenko-s-revenge-how-belarus-is-funneling-refugees-into-the-eu-a-a3151fc2-9b3b-4812-a63a-298ea26f55b0#ref=rss",
    "published": "Tue, 17 Aug 2021 18:38:35 +0200",
    "tags": [
      "lukashenko",
      "revenge",
      "belarus",
      "funneling refugees",
      "eu"
    ],
    "geometry": {
      "name": "Belarus",
      "code": "BY",
      "geometry": {
        "location": {
          "lat": 53.709807,
          "lng": 27.953389
        },
        "viewport": {
          "northeast": {
            "lat": 56.1718719,
            "lng": 32.7768202
          },
          "southwest": {
            "lat": 51.26201100000001,
            "lng": 23.1783377
          }
        }
      }
    }
  },
  {
    "source": "Der Spiegel - International",
    "region": "de",
    "language": "en",
    "id": "571318746843",
    "title": "A Wolf in Sheep's Clothing: Fears Justified as Taliban Secures Power in Afghanistan",
    "link": "https://www.spiegel.de/international/world/a-wolf-in-sheep-s-clothing-fears-justified-as-taliban-secures-power-in-afghanistan-a-87f0a165-1948-45c3-8195-8be59b844032#ref=rss",
    "published": "Mon, 16 Aug 2021 14:02:53 +0200",
    "tags": [
      "wolf",
      "sheep",
      "clothing",
      "justified",
      "taliban secures power",
      "afghanistan"
    ],
    "geometry": {
      "name": "Afghanistan",
      "code": "AF",
      "geometry": {
        "location": {
          "lat": 33.93911,
          "lng": 67.709953
        },
        "viewport": {
          "northeast": {
            "lat": 38.49087670000001,
            "lng": 74.8898619
          },
          "southwest": {
            "lat": 29.3772,
            "lng": 60.5170005
          }
        }
      }
    }
  },
  {
    "source": "Der Spiegel - International",
    "region": "de",
    "language": "en",
    "id": "929742813272",
    "title": "Germany's Afghanistan Dilemma: What To Do With Local Hires?",
    "link": "https://www.spiegel.de/international/world/germany-s-afghanistan-dilemma-what-to-do-with-local-hires-a-fd26d307-6d46-40ab-a08a-de025e034ccb#ref=rss",
    "published": "Fri, 13 Aug 2021 17:52:00 +0200",
    "tags": [
      "germany",
      "afghanistan dilemma",
      "hires"
    ],
    "geometry": {
      "name": "Germany",
      "code": "DE",
      "geometry": {
        "location": {
          "lat": 51.165691,
          "lng": 10.451526
        },
        "viewport": {
          "northeast": {
            "lat": 55.0815,
            "lng": 15.0418962
          },
          "southwest": {
            "lat": 47.2701115,
            "lng": 5.8663425
          }
        }
      }
    }
  },
  {
    "source": "Der Spiegel - International",
    "region": "de",
    "language": "en",
    "id": "334233337129",
    "title": "Poland's Judges Are Fighting To Save Rule of Law and Their Own Jobs",
    "link": "https://www.spiegel.de/international/europe/poland-s-judges-are-fighting-to-save-rule-of-law-and-their-own-jobs-a-fdf982c4-4a94-407d-b671-550e9a8ba14b#ref=rss",
    "published": "Fri, 13 Aug 2021 17:43:09 +0200",
    "tags": [
      "poland",
      "judges",
      "fighting",
      "save",
      "own jobs"
    ],
    "geometry": {
      "name": "Poland",
      "code": "PL",
      "geometry": {
        "location": {
          "lat": 51.919438,
          "lng": 19.145136
        },
        "viewport": {
          "northeast": {
            "lat": 54.9054761,
            "lng": 24.1458931
          },
          "southwest": {
            "lat": 49.002025,
            "lng": 14.1228641
          }
        }
      }
    }
  },
  {
    "source": "Der Spiegel - International",
    "region": "de",
    "language": "en",
    "id": "853751545774",
    "title": "Bianca Jagger on State-Sponsored Violence in Nicaragua",
    "link": "https://www.spiegel.de/international/world/bianca-jagger-on-state-sponsored-violence-in-nicaragua-they-would-shoot-at-the-throat-and-the-head-to-murder-the-protesters-a-ee51e63a-cc54-487c-b87a-c471982b4a25#ref=rss",
    "published": "Fri, 13 Aug 2021 17:37:27 +0200",
    "tags": [
      "bianca jagger",
      "state-sponsored violence",
      "nicaragua"
    ],
    "geometry": {
      "name": "Nicaragua",
      "code": "NI",
      "geometry": {
        "location": {
          "lat": 12.865416,
          "lng": -85.207229
        },
        "viewport": {
          "northeast": {
            "lat": 15.0297369,
            "lng": -82.2766
          },
          "southwest": {
            "lat": 10.7080549,
            "lng": -87.7588
          }
        }
      }
    }
  },
  {
    "source": "Der Spiegel - International",
    "region": "de",
    "language": "en",
    "id": "505741998624",
    "title": "Summer of Anxiety: Have We Finally Broken the Climate?",
    "link": "https://www.spiegel.de/international/world/summer-of-anxiety-have-we-finally-broken-the-climate-a-b2ce06af-6c61-4ac0-853e-81c4a4fb49b8#ref=rss",
    "published": "Thu, 12 Aug 2021 17:53:07 +0200",
    "tags": [
      "anxiety",
      "have",
      "broken",
      "climate"
    ],
    "geometry": {
      "location": {
        "lat": 53.5510846,
        "lng": 9.9936819
      },
      "viewport": {
        "northeast": {
          "lat": 53.717145,
          "lng": 10.123492
        },
        "southwest": {
          "lat": 53.399999,
          "lng": 9.732151000000002
        }
      }
    }
  },
  {
    "source": "Der Spiegel - International",
    "region": "de",
    "language": "en",
    "id": "589085961297",
    "title": "The Great Green Wall: Warding Off Desertification in Africa",
    "link": "https://www.spiegel.de/international/world/the-great-green-wall-warding-off-desertification-in-africa-a-461d296b-88ae-4321-bc27-72832dd9884b#ref=rss",
    "published": "Thu, 12 Aug 2021 11:47:00 +0200",
    "tags": [
      "wall",
      "warding off desertification",
      "africa"
    ],
    "geometry": {
      "name": "Africa",
      "location": {
        "lat": -8.783195,
        "lng": 34.508523
      },
      "viewport": {
        "northeast": {
          "lat": 33.8352384,
          "lng": 59.31900329999999
        },
        "southwest": {
          "lat": -29.3041736,
          "lng": -12.1360704
        }
      }
    }
  },
  {
    "source": "Der Spiegel - International",
    "region": "de",
    "language": "en",
    "id": "824325530511",
    "title": "Weather Disaster in Austria: Finger Pointing After Severe Flooding in Small Town",
    "link": "https://www.spiegel.de/international/weather-disaster-in-austria-finger-pointing-after-severe-flooding-in-small-town-a-432f6b26-ed9a-447b-8621-692a0777bc4a#ref=rss",
    "published": "Thu, 12 Aug 2021 11:01:26 +0200",
    "tags": [
      "weather disaster",
      "austria",
      "finger pointing",
      "severe flooding",
      "small"
    ],
    "geometry": {
      "name": "Austria",
      "code": "AT",
      "geometry": {
        "location": {
          "lat": 47.516231,
          "lng": 14.550072
        },
        "viewport": {
          "northeast": {
            "lat": 49.0206081,
            "lng": 17.1607329
          },
          "southwest": {
            "lat": 46.37233579999999,
            "lng": 9.530783399999999
          }
        }
      }
    }
  },
  {
    "source": "Der Spiegel - International",
    "region": "de",
    "language": "en",
    "id": "382857048074",
    "title": "Lukashenko's Reign of Fear Hits the Olympics and Beyond",
    "link": "https://www.spiegel.de/international/europe/it-s-not-a-joke-lukashenko-s-reign-of-fear-hits-the-olympics-and-beyond-a-ea1db1bb-be4f-4492-9114-3d44f6d54284#ref=rss",
    "published": "Sat, 7 Aug 2021 13:03:51 +0200",
    "tags": [
      "lukashenko",
      "reign",
      "fear hits",
      "olympics"
    ],
    "geometry": {
      "location": {
        "lat": 53.5510846,
        "lng": 9.9936819
      },
      "viewport": {
        "northeast": {
          "lat": 53.717145,
          "lng": 10.123492
        },
        "southwest": {
          "lat": 53.399999,
          "lng": 9.732151000000002
        }
      }
    }
  },
  {
    "source": "Der Spiegel - International",
    "region": "de",
    "language": "en",
    "id": "325437486131",
    "title": "Pfizer-BioNTech and the Delta Variant: How Useful Is a Third Dose of Vaccine?",
    "link": "https://www.spiegel.de/international/world/pfizer-biontech-and-the-delta-variant-how-useful-is-a-third-dose-of-vaccine-a-bcd87497-e38f-4082-817e-a241dbbda49e#ref=rss",
    "published": "Fri, 6 Aug 2021 17:39:56 +0200",
    "tags": [
      "pfizer-biontech",
      "delta variant",
      "useful",
      "dose",
      "vaccine"
    ],
    "geometry": {
      "location": {
        "lat": 53.5510846,
        "lng": 9.9936819
      },
      "viewport": {
        "northeast": {
          "lat": 53.717145,
          "lng": 10.123492
        },
        "southwest": {
          "lat": 53.399999,
          "lng": 9.732151000000002
        }
      }
    }
  },
  {
    "source": "Der Spiegel - International",
    "region": "de",
    "language": "en",
    "id": "431769821303",
    "title": "Climate Change Creates New Challenges for Russian Firefighters",
    "link": "https://www.spiegel.de/international/world/climate-change-creates-new-challenges-for-russian-firefighters-a-5a0145a6-bffa-46c4-bd74-e537bc84494d#ref=rss",
    "published": "Thu, 5 Aug 2021 10:52:06 +0200",
    "tags": [
      "climate",
      "creates",
      "challenges",
      "russian firefighters"
    ],
    "geometry": {
      "location": {
        "lat": 53.5510846,
        "lng": 9.9936819
      },
      "viewport": {
        "northeast": {
          "lat": 53.717145,
          "lng": 10.123492
        },
        "southwest": {
          "lat": 53.399999,
          "lng": 9.732151000000002
        }
      }
    }
  },
  {
    "source": "Der Spiegel - International",
    "region": "de",
    "language": "en",
    "id": "490258196469",
    "title": "Rising Malnourishment: Global Food Prices Spike in Response to the Pandemic",
    "link": "https://www.spiegel.de/international/world/rising-malnourishment-global-food-prices-spike-in-response-to-the-pandemic-a-e51ad658-b45c-4ca2-881b-6948778077a3#ref=rss",
    "published": "Wed, 4 Aug 2021 16:31:56 +0200",
    "tags": [
      "rising malnourishment",
      "global",
      "prices spike",
      "pandemic"
    ],
    "geometry": {
      "location": {
        "lat": 53.5510846,
        "lng": 9.9936819
      },
      "viewport": {
        "northeast": {
          "lat": 53.717145,
          "lng": 10.123492
        },
        "southwest": {
          "lat": 53.399999,
          "lng": 9.732151000000002
        }
      }
    }
  },
  {
    "source": "Der Spiegel - International",
    "region": "de",
    "language": "en",
    "id": "264739632362",
    "title": "Proposed Northern Ireland Amnesty Law Faces Massive Critique",
    "link": "https://www.spiegel.de/international/europe/holding-a-match-to-the-powder-keg-proposed-northern-ireland-amnesty-law-faces-massive-critique-a-971a3ed6-257e-4511-b8c6-869fbd03d806#ref=rss",
    "published": "Tue, 3 Aug 2021 16:43:23 +0200",
    "tags": [
      "proposed",
      "ireland amnesty",
      "faces massive critique"
    ],
    "geometry": {
      "location": {
        "lat": 53.5510846,
        "lng": 9.9936819
      },
      "viewport": {
        "northeast": {
          "lat": 53.717145,
          "lng": 10.123492
        },
        "southwest": {
          "lat": 53.399999,
          "lng": 9.732151000000002
        }
      }
    }
  },
  {
    "source": "Der Spiegel - International",
    "region": "de",
    "language": "en",
    "id": "551955391296",
    "title": "AstraZeneca and Pfizer/BioNTech: Germany Faces Dilemma of What to do with Excess Vaccine",
    "link": "https://www.spiegel.de/international/germany/astrazeneca-and-pfizer-biontech-germany-faces-dilemma-of-what-to-do-with-excess-vaccine-a-6e13668e-0a1a-4251-821b-ff3eb3c7bbd9#ref=rss",
    "published": "Fri, 30 Jul 2021 19:21:00 +0200",
    "tags": [
      "astrazeneca",
      "pfizer/biontech",
      "germany faces dilemma",
      "excess vaccine"
    ],
    "geometry": {
      "location": {
        "lat": 53.5510846,
        "lng": 9.9936819
      },
      "viewport": {
        "northeast": {
          "lat": 53.717145,
          "lng": 10.123492
        },
        "southwest": {
          "lat": 53.399999,
          "lng": 9.732151000000002
        }
      }
    }
  },
  {
    "source": "Der Spiegel - International",
    "region": "de",
    "language": "en",
    "id": "030999128113",
    "title": "Delta and Other Baggage: New COVID-19 Rules for Travelers in Germany Arrive Late and Fall Short",
    "link": "https://www.spiegel.de/international/germany/delta-and-other-baggage-new-covid-19-rules-for-travelers-in-germany-arrive-late-and-fall-short-a-3c463dff-efff-46da-9500-7d2a3bd5f88d#ref=rss",
    "published": "Fri, 30 Jul 2021 19:08:15 +0200",
    "tags": [
      "delta",
      "baggage",
      "covid-19",
      "germany arrive late",
      "short"
    ],
    "geometry": {
      "country": "Canada",
      "geonameid": 5937615,
      "name": "Delta",
      "subcountry": "British Columbia",
      "geometry": {
        "location": {
          "lat": 49.09521549999999,
          "lng": -123.0264758
        },
        "viewport": {
          "northeast": {
            "lat": 49.195349,
            "lng": -122.890122
          },
          "southwest": {
            "lat": 49.00205589999999,
            "lng": -123.3294299
          }
        }
      }
    }
  },
  {
    "source": "China News Service (CNS)",
    "region": "zh",
    "language": "en",
    "id": "962826974118",
    "title": "7 Afghan civilians killed amid chaos at Kabul airport: British ministry",
    "link": "http://www.ecns.cn/news/politics/2021-08-22/detail-ihaqkfpn8668020.shtml",
    "published": "2021-08-22 18:48:34",
    "tags": [
      "afghan",
      "kabul",
      "british ministry"
    ],
    "geometry": {
      "country": "Afghanistan",
      "geonameid": 1138958,
      "name": "Kabul",
      "subcountry": "Kabul",
      "geometry": {
        "location": {
          "lat": 34.5553494,
          "lng": 69.207486
        },
        "viewport": {
          "northeast": {
            "lat": 34.7619227,
            "lng": 69.4459534
          },
          "southwest": {
            "lat": 34.3454912,
            "lng": 68.9495086
          }
        }
      }
    }
  },
  {
    "source": "China News Service (CNS)",
    "region": "zh",
    "language": "en",
    "id": "134470019912",
    "title": "HKMA chief says Hong Kong resilient as global financial hub",
    "link": "http://www.ecns.cn/news/politics/2021-08-22/detail-ihaqkfpn8668017.shtml",
    "published": "2021-08-22 17:33:42",
    "tags": [
      "hkma",
      "hong kong",
      "global financial hub"
    ],
    "geometry": {
      "country": "Hong Kong",
      "geonameid": 1819729,
      "name": "Hong Kong",
      "subcountry": "Central and Western",
      "geometry": {
        "location": {
          "lat": 22.3193039,
          "lng": 114.1693611
        },
        "viewport": {
          "northeast": {
            "lat": 22.5619469,
            "lng": 114.4294999
          },
          "southwest": {
            "lat": 22.1435,
            "lng": 113.8259001
          }
        }
      }
    }
  },
  {
    "source": "China News Service (CNS)",
    "region": "zh",
    "language": "en",
    "id": "541446650190",
    "title": "China's natural gas output up 9.8 pct in July",
    "link": "http://www.ecns.cn/news/2021-08-22/detail-ihaqkfpn8668011.shtml",
    "published": "2021-08-22 14:36:08",
    "tags": [
      "china",
      "natural gas output",
      "july"
    ],
    "geometry": {
      "name": "China",
      "code": "CN",
      "geometry": {
        "location": {
          "lat": 35.86166,
          "lng": 104.195397
        },
        "viewport": {
          "northeast": {
            "lat": 53.5609739,
            "lng": 134.7754563
          },
          "southwest": {
            "lat": 17.9996,
            "lng": 73.4994136
          }
        }
      }
    }
  },
  {
    "source": "China News Service (CNS)",
    "region": "zh",
    "language": "en",
    "id": "423030026894",
    "title": "China's power generation increases 13.2 pct in Jan-July",
    "link": "http://www.ecns.cn/news/2021-08-22/detail-ihaqkfpn8668009.shtml",
    "published": "2021-08-22 14:36:08",
    "tags": [
      "china",
      "power generation increases",
      "jan-july"
    ],
    "geometry": {
      "name": "China",
      "code": "CN",
      "geometry": {
        "location": {
          "lat": 35.86166,
          "lng": 104.195397
        },
        "viewport": {
          "northeast": {
            "lat": 53.5609739,
            "lng": 134.7754563
          },
          "southwest": {
            "lat": 17.9996,
            "lng": 73.4994136
          }
        }
      }
    }
  },
  {
    "source": "China News Service (CNS)",
    "region": "zh",
    "language": "en",
    "id": "498321939507",
    "title": "Land-sea freight route for western China busy",
    "link": "http://www.ecns.cn/news/2021-08-22/detail-ihaqkfpn8668005.shtml",
    "published": "2021-08-22 13:29:21",
    "tags": [
      "land-sea",
      "freight route",
      "china"
    ],
    "geometry": {
      "name": "China",
      "code": "CN",
      "geometry": {
        "location": {
          "lat": 35.86166,
          "lng": 104.195397
        },
        "viewport": {
          "northeast": {
            "lat": 53.5609739,
            "lng": 134.7754563
          },
          "southwest": {
            "lat": 17.9996,
            "lng": 73.4994136
          }
        }
      }
    }
  },
  {
    "source": "China News Service (CNS)",
    "region": "zh",
    "language": "en",
    "id": "322758743360",
    "title": "Shanghai company unveils simultaneous COVID-19 and flu test kit",
    "link": "http://www.ecns.cn/news/2021-08-22/detail-ihaqkfpn8667999.shtml",
    "published": "2021-08-22 13:22:30",
    "tags": [
      "shanghai",
      "company unveils",
      "covid-19",
      "flu test kit"
    ],
    "geometry": {
      "country": "China",
      "geonameid": 1796236,
      "name": "Shanghai",
      "subcountry": "Shanghai Shi",
      "geometry": {
        "location": {
          "lat": 31.230416,
          "lng": 121.473701
        },
        "viewport": {
          "northeast": {
            "lat": 31.6688967,
            "lng": 122.1137989
          },
          "southwest": {
            "lat": 30.7798012,
            "lng": 120.8397067
          }
        }
      }
    }
  },
  {
    "source": "China News Service (CNS)",
    "region": "zh",
    "language": "en",
    "id": "640996587304",
    "title": "At least 8 dead, over 30 missing after severe floods hit U.S. Tennessee",
    "link": "http://www.ecns.cn/news/2021-08-22/detail-ihaqkfpn8667991.shtml",
    "published": "2021-08-22 11:16:38",
    "tags": [
      "severe floods",
      "u.s. tennessee"
    ],
    "geometry": {
      "location": {
        "lat": 39.90419989999999,
        "lng": 116.4073963
      },
      "viewport": {
        "northeast": {
          "lat": 40.2164962,
          "lng": 116.7829835
        },
        "southwest": {
          "lat": 39.6612714,
          "lng": 116.0119343
        }
      }
    }
  },
  {
    "source": "China News Service (CNS)",
    "region": "zh",
    "language": "en",
    "id": "784486156196",
    "title": "5.2-magnitude quake strikes off Japan's Fukushima Prefecture, no tsunami warning issued",
    "link": "http://www.ecns.cn/news/2021-08-22/detail-ihaqkfpn8667993.shtml",
    "published": "2021-08-22 11:16:38",
    "tags": [
      "5.2-magnitude quake strikes",
      "japan",
      "fukushima prefecture",
      "tsunami warning"
    ],
    "geometry": {
      "name": "Japan",
      "code": "JP",
      "geometry": {
        "location": {
          "lat": 36.204824,
          "lng": 138.252924
        },
        "viewport": {
          "northeast": {
            "lat": 45.6412626,
            "lng": 154.0031455
          },
          "southwest": {
            "lat": 20.3585295,
            "lng": 122.8554688
          }
        }
      }
    }
  },
  {
    "source": "China News Service (CNS)",
    "region": "zh",
    "language": "en",
    "id": "400140486453",
    "title": "Israel launches airstrikes on Gaza following clashes",
    "link": "http://www.ecns.cn/news/2021-08-22/detail-ihaqkfpn8667985.shtml",
    "published": "2021-08-22 10:33:56",
    "tags": [
      "israel",
      "launches airstrikes",
      "gaza"
    ],
    "geometry": {
      "name": "Israel",
      "code": "IL",
      "geometry": {
        "location": {
          "lat": 31.046051,
          "lng": 34.851612
        },
        "viewport": {
          "northeast": {
            "lat": 33.33280500000001,
            "lng": 35.896244
          },
          "southwest": {
            "lat": 29.47969999999999,
            "lng": 34.2673871
          }
        }
      }
    }
  },
  {
    "source": "China News Service (CNS)",
    "region": "zh",
    "language": "en",
    "id": "624689264879",
    "title": "China's data security law to provide boost",
    "link": "http://www.ecns.cn/news/2021-08-22/detail-ihaqkfpn8667981.shtml",
    "published": "2021-08-22 09:30:58",
    "tags": [
      "china",
      "data security law"
    ],
    "geometry": {
      "name": "China",
      "code": "CN",
      "geometry": {
        "location": {
          "lat": 35.86166,
          "lng": 104.195397
        },
        "viewport": {
          "northeast": {
            "lat": 53.5609739,
            "lng": 134.7754563
          },
          "southwest": {
            "lat": 17.9996,
            "lng": 73.4994136
          }
        }
      }
    }
  },
  {
    "source": "China News Service (CNS)",
    "region": "zh",
    "language": "en",
    "id": "867212292144",
    "title": "Central Chinese city suspends business, construction ahead of downpours",
    "link": "http://www.ecns.cn/news/2021-08-22/detail-ihaqkfpn8667977.shtml",
    "published": "2021-08-22 08:21:50",
    "tags": [
      "central chinese city suspends business"
    ],
    "geometry": {
      "location": {
        "lat": 39.90419989999999,
        "lng": 116.4073963
      },
      "viewport": {
        "northeast": {
          "lat": 40.2164962,
          "lng": 116.7829835
        },
        "southwest": {
          "lat": 39.6612714,
          "lng": 116.0119343
        }
      }
    }
  },
  {
    "source": "China News Service (CNS)",
    "region": "zh",
    "language": "en",
    "id": "442207302873",
    "title": "Taliban meets Afghan political figures, assuring security",
    "link": "http://www.ecns.cn/news/2021-08-22/detail-ihaqkfpn8667969.shtml",
    "published": "2021-08-22 08:09:57",
    "tags": [
      "taliban",
      "afghan",
      "political figures"
    ],
    "geometry": {
      "location": {
        "lat": 39.90419989999999,
        "lng": 116.4073963
      },
      "viewport": {
        "northeast": {
          "lat": 40.2164962,
          "lng": 116.7829835
        },
        "southwest": {
          "lat": 39.6612714,
          "lng": 116.0119343
        }
      }
    }
  },
  {
    "source": "China News Service (CNS)",
    "region": "zh",
    "language": "en",
    "id": "386503952784",
    "title": "Taliban vows to have ties with all countries, denies kidnapping of foreigners at Kabul airport",
    "link": "http://www.ecns.cn/news/2021-08-22/detail-ihaqkfpn8667967.shtml",
    "published": "2021-08-22 08:09:57",
    "tags": [
      "taliban",
      "kabul"
    ],
    "geometry": {
      "country": "Afghanistan",
      "geonameid": 1138958,
      "name": "Kabul",
      "subcountry": "Kabul",
      "geometry": {
        "location": {
          "lat": 34.5553494,
          "lng": 69.207486
        },
        "viewport": {
          "northeast": {
            "lat": 34.7619227,
            "lng": 69.4459534
          },
          "southwest": {
            "lat": 34.3454912,
            "lng": 68.9495086
          }
        }
      }
    }
  },
  {
    "source": "China News Service (CNS)",
    "region": "zh",
    "language": "en",
    "id": "422066806639",
    "title": "Digital revolution contributes to universal health coverage",
    "link": "http://www.ecns.cn/news/2021-08-21/detail-ihaqkfpn8667949.shtml",
    "published": "2021-08-21 20:41:38",
    "tags": [
      "digital",
      "revolution contributes",
      "universal health coverage"
    ],
    "geometry": {
      "location": {
        "lat": 39.90419989999999,
        "lng": 116.4073963
      },
      "viewport": {
        "northeast": {
          "lat": 40.2164962,
          "lng": 116.7829835
        },
        "southwest": {
          "lat": 39.6612714,
          "lng": 116.0119343
        }
      }
    }
  },
  {
    "source": "China News Service (CNS)",
    "region": "zh",
    "language": "en",
    "id": "787212360606",
    "title": "U.S. divisions prove fatal in pandemic",
    "link": "http://www.ecns.cn/news/2021-08-21/detail-ihaqkfpn8667937.shtml",
    "published": "2021-08-21 18:42:21",
    "tags": [
      "u.s."
    ],
    "geometry": {
      "location": {
        "lat": 39.90419989999999,
        "lng": 116.4073963
      },
      "viewport": {
        "northeast": {
          "lat": 40.2164962,
          "lng": 116.7829835
        },
        "southwest": {
          "lat": 39.6612714,
          "lng": 116.0119343
        }
      }
    }
  },
  {
    "source": "China News Service (CNS)",
    "region": "zh",
    "language": "en",
    "id": "295639144899",
    "title": "Study links wildfires in U.S. West to COVID",
    "link": "http://www.ecns.cn/news/2021-08-21/detail-ihaqkfpn8667931.shtml",
    "published": "2021-08-21 18:09:41",
    "tags": [
      "links wildfires",
      "u.s.",
      "covid"
    ],
    "geometry": {
      "location": {
        "lat": 39.90419989999999,
        "lng": 116.4073963
      },
      "viewport": {
        "northeast": {
          "lat": 40.2164962,
          "lng": 116.7829835
        },
        "southwest": {
          "lat": 39.6612714,
          "lng": 116.0119343
        }
      }
    }
  },
  {
    "source": "China News Service (CNS)",
    "region": "zh",
    "language": "en",
    "id": "482425269602",
    "title": "Deals worth over $24b inked at China-Arab States Expo",
    "link": "http://www.ecns.cn/news/society/2021-08-21/detail-ihaqkfpn8667928.shtml",
    "published": "2021-08-21 16:16:49",
    "tags": [
      "deals",
      "$ 24b",
      "china-arab",
      "expo"
    ],
    "geometry": {
      "location": {
        "lat": 39.90419989999999,
        "lng": 116.4073963
      },
      "viewport": {
        "northeast": {
          "lat": 40.2164962,
          "lng": 116.7829835
        },
        "southwest": {
          "lat": 39.6612714,
          "lng": 116.0119343
        }
      }
    }
  },
  {
    "source": "China News Service (CNS)",
    "region": "zh",
    "language": "en",
    "id": "961244249100",
    "title": "Wang Yi says world should respect the choices of the Afghan people",
    "link": "http://www.ecns.cn/news/politics/2021-08-21/detail-ihaqkfpn8667925.shtml",
    "published": "2021-08-21 16:11:20",
    "tags": [
      "wang yi",
      "afghan"
    ],
    "geometry": {
      "location": {
        "lat": 39.90419989999999,
        "lng": 116.4073963
      },
      "viewport": {
        "northeast": {
          "lat": 40.2164962,
          "lng": 116.7829835
        },
        "southwest": {
          "lat": 39.6612714,
          "lng": 116.0119343
        }
      }
    }
  },
  {
    "source": "China News Service (CNS)",
    "region": "zh",
    "language": "en",
    "id": "727176959034",
    "title": "China renews blue alert for rainstorms",
    "link": "http://www.ecns.cn/news/2021-08-21/detail-ihaqkfpn8667921.shtml",
    "published": "2021-08-21 14:54:55",
    "tags": [
      "china"
    ],
    "geometry": {
      "name": "China",
      "code": "CN",
      "geometry": {
        "location": {
          "lat": 35.86166,
          "lng": 104.195397
        },
        "viewport": {
          "northeast": {
            "lat": 53.5609739,
            "lng": 134.7754563
          },
          "southwest": {
            "lat": 17.9996,
            "lng": 73.4994136
          }
        }
      }
    }
  },
  {
    "source": "China News Service (CNS)",
    "region": "zh",
    "language": "en",
    "id": "715291116520",
    "title": "Taliban wants ties with all countries, including U.S.: Taliban political chief",
    "link": "http://www.ecns.cn/news/2021-08-21/detail-ihaqkfpn8667919.shtml",
    "published": "2021-08-21 14:54:55",
    "tags": [
      "taliban",
      "u.s.",
      "taliban"
    ],
    "geometry": {
      "location": {
        "lat": 39.90419989999999,
        "lng": 116.4073963
      },
      "viewport": {
        "northeast": {
          "lat": 40.2164962,
          "lng": 116.7829835
        },
        "southwest": {
          "lat": 39.6612714,
          "lng": 116.0119343
        }
      }
    }
  },
  {
    "source": "China News Service (CNS)",
    "region": "zh",
    "language": "en",
    "id": "381347442845",
    "title": "Cross-species transmission most likely source of COVID-19: Cell",
    "link": "http://www.ecns.cn/news/2021-08-21/detail-ihaqkfpn8667911.shtml",
    "published": "2021-08-21 13:14:42",
    "tags": [
      "cross-species",
      "likely source",
      "covid-19",
      "cell"
    ],
    "geometry": {
      "location": {
        "lat": 39.90419989999999,
        "lng": 116.4073963
      },
      "viewport": {
        "northeast": {
          "lat": 40.2164962,
          "lng": 116.7829835
        },
        "southwest": {
          "lat": 39.6612714,
          "lng": 116.0119343
        }
      }
    }
  },
  {
    "source": "China News Service (CNS)",
    "region": "zh",
    "language": "en",
    "id": "268052582597",
    "title": "Australia reports new record number of COVID-19 infections despite lockdown in major cities",
    "link": "http://www.ecns.cn/news/2021-08-21/detail-ihaqkfpn8667909.shtml",
    "published": "2021-08-21 13:14:42",
    "tags": [
      "australia",
      "new record number",
      "covid-19",
      "major cities"
    ],
    "geometry": {
      "name": "Australia",
      "code": "AU",
      "geometry": {
        "location": {
          "lat": -25.274398,
          "lng": 133.775136
        },
        "viewport": {
          "northeast": {
            "lat": -0.6911343999999999,
            "lng": 166.7429167
          },
          "southwest": {
            "lat": -51.66332320000001,
            "lng": 100.0911072
          }
        }
      }
    }
  },
  {
    "source": "China News Service (CNS)",
    "region": "zh",
    "language": "en",
    "id": "552579511632",
    "title": "Canada's new COVID-19 cases up 38 pct over past week",
    "link": "http://www.ecns.cn/news/2021-08-21/detail-ihaqkfpn8667915.shtml",
    "published": "2021-08-21 13:14:42",
    "tags": [
      "canada",
      "covid-19",
      "past week"
    ],
    "geometry": {
      "name": "Canada",
      "code": "CA",
      "geometry": {
        "location": {
          "lat": 56.130366,
          "lng": -106.346771
        },
        "viewport": {
          "northeast": {
            "lat": 70,
            "lng": -50
          },
          "southwest": {
            "lat": 42,
            "lng": -142
          }
        }
      }
    }
  },
  {
    "source": "China News Service (CNS)",
    "region": "zh",
    "language": "en",
    "id": "502065777885",
    "title": "COVID-19 lab leak theory \"extremely unlikely\": virologist",
    "link": "http://www.ecns.cn/news/2021-08-21/detail-ihaqkfpn8667913.shtml",
    "published": "2021-08-21 13:14:42",
    "tags": [
      "covid-19",
      "lab leak theory"
    ],
    "geometry": {
      "location": {
        "lat": 39.90419989999999,
        "lng": 116.4073963
      },
      "viewport": {
        "northeast": {
          "lat": 40.2164962,
          "lng": 116.7829835
        },
        "southwest": {
          "lat": 39.6612714,
          "lng": 116.0119343
        }
      }
    }
  },
  {
    "source": "China News Service (CNS)",
    "region": "zh",
    "language": "en",
    "id": "154432754546",
    "title": "COVID-19 origins tracing should not be politically motivated, says Bangladeshi FM",
    "link": "http://www.ecns.cn/news/2021-08-21/detail-ihaqkfpn8667885.shtml",
    "published": "2021-08-21 09:22:16",
    "tags": [
      "covid-19",
      "bangladeshi fm"
    ],
    "geometry": {
      "location": {
        "lat": 39.90419989999999,
        "lng": 116.4073963
      },
      "viewport": {
        "northeast": {
          "lat": 40.2164962,
          "lng": 116.7829835
        },
        "southwest": {
          "lat": 39.6612714,
          "lng": 116.0119343
        }
      }
    }
  },
  {
    "source": "China News Service (CNS)",
    "region": "zh",
    "language": "en",
    "id": "677774460296",
    "title": "UN chief pledges to help victims of terrorism",
    "link": "http://www.ecns.cn/news/2021-08-21/detail-ihaqkfpn8667881.shtml",
    "published": "2021-08-21 09:21:57",
    "tags": [
      "un chief pledges"
    ],
    "geometry": {
      "location": {
        "lat": 39.90419989999999,
        "lng": 116.4073963
      },
      "viewport": {
        "northeast": {
          "lat": 40.2164962,
          "lng": 116.7829835
        },
        "southwest": {
          "lat": 39.6612714,
          "lng": 116.0119343
        }
      }
    }
  },
  {
    "source": "China News Service (CNS)",
    "region": "zh",
    "language": "en",
    "id": "815655759934",
    "title": "Low vaccination rates persist in U.S. Detroit households with children: survey",
    "link": "http://www.ecns.cn/news/2021-08-21/detail-ihaqkfpn8667883.shtml",
    "published": "2021-08-21 09:21:57",
    "tags": [
      "low",
      "vaccination rates persist",
      "u.s. detroit"
    ],
    "geometry": {
      "location": {
        "lat": 39.90419989999999,
        "lng": 116.4073963
      },
      "viewport": {
        "northeast": {
          "lat": 40.2164962,
          "lng": 116.7829835
        },
        "southwest": {
          "lat": 39.6612714,
          "lng": 116.0119343
        }
      }
    }
  },
  {
    "source": "China News Service (CNS)",
    "region": "zh",
    "language": "en",
    "id": "433349987522",
    "title": "Meng's fate hangs in air as hearings come to end",
    "link": "http://www.ecns.cn/business/2021-08-21/detail-ihaqkfpn8667879.shtml",
    "published": "2021-08-21 09:21:57",
    "tags": [
      "meng",
      "fate hangs"
    ],
    "geometry": {
      "location": {
        "lat": 39.90419989999999,
        "lng": 116.4073963
      },
      "viewport": {
        "northeast": {
          "lat": 40.2164962,
          "lng": 116.7829835
        },
        "southwest": {
          "lat": 39.6612714,
          "lng": 116.0119343
        }
      }
    }
  },
  {
    "source": "China News Service (CNS)",
    "region": "zh",
    "language": "en",
    "id": "692298708693",
    "title": "Biden defends handling of withdrawal from Afghanistan, sees \"no question\" of U.S. credibility",
    "link": "http://www.ecns.cn/news/2021-08-21/detail-ihaqkfpn8667873.shtml",
    "published": "2021-08-21 09:19:45",
    "tags": [
      "biden",
      "afghanistan",
      "u.s."
    ],
    "geometry": {
      "name": "Afghanistan",
      "code": "AF",
      "geometry": {
        "location": {
          "lat": 33.93911,
          "lng": 67.709953
        },
        "viewport": {
          "northeast": {
            "lat": 38.49087670000001,
            "lng": 74.8898619
          },
          "southwest": {
            "lat": 29.3772,
            "lng": 60.5170005
          }
        }
      }
    }
  },
  {
    "source": "China News Service (CNS)",
    "region": "zh",
    "language": "en",
    "id": "651399134734",
    "title": "Situation across Afghanistan remains extremely fluid: UN",
    "link": "http://www.ecns.cn/news/2021-08-21/detail-ihaqkfpn8667875.shtml",
    "published": "2021-08-21 09:19:45",
    "tags": [
      "situation",
      "afghanistan"
    ],
    "geometry": {
      "name": "Afghanistan",
      "code": "AF",
      "geometry": {
        "location": {
          "lat": 33.93911,
          "lng": 67.709953
        },
        "viewport": {
          "northeast": {
            "lat": 38.49087670000001,
            "lng": 74.8898619
          },
          "southwest": {
            "lat": 29.3772,
            "lng": 60.5170005
          }
        }
      }
    }
  },
  {
    "source": "China News Service (CNS)",
    "region": "zh",
    "language": "en",
    "id": "000201071235",
    "title": "Over 1,600 internet hospitals established in China",
    "link": "http://www.ecns.cn/news/2021-08-21/detail-ihaqkfpn8667877.shtml",
    "published": "2021-08-21 09:19:45",
    "tags": [
      "internet hospitals",
      "china"
    ],
    "geometry": {
      "name": "China",
      "code": "CN",
      "geometry": {
        "location": {
          "lat": 35.86166,
          "lng": 104.195397
        },
        "viewport": {
          "northeast": {
            "lat": 53.5609739,
            "lng": 134.7754563
          },
          "southwest": {
            "lat": 17.9996,
            "lng": 73.4994136
          }
        }
      }
    }
  },
  {
    "source": "China News Service (CNS)",
    "region": "zh",
    "language": "en",
    "id": "259616826985",
    "title": "Imposing external values on Afghanistan \"irresponsible\": Putin",
    "link": "http://www.ecns.cn/news/2021-08-21/detail-ihaqkfpn8667871.shtml",
    "published": "2021-08-21 09:19:45",
    "tags": [
      "imposing",
      "external values",
      "afghanistan",
      "putin"
    ],
    "geometry": {
      "name": "Afghanistan",
      "code": "AF",
      "geometry": {
        "location": {
          "lat": 33.93911,
          "lng": 67.709953
        },
        "viewport": {
          "northeast": {
            "lat": 38.49087670000001,
            "lng": 74.8898619
          },
          "southwest": {
            "lat": 29.3772,
            "lng": 60.5170005
          }
        }
      }
    }
  },
  {
    "source": "China News Service (CNS)",
    "region": "zh",
    "language": "en",
    "id": "192808702887",
    "title": "UK will work with Taliban \"if necessary\", says PM Johnson",
    "link": "http://www.ecns.cn/news/2021-08-21/detail-ihaqkfpn8667869.shtml",
    "published": "2021-08-21 09:19:45",
    "tags": [
      "uk",
      "taliban",
      "pm johnson"
    ],
    "geometry": {
      "location": {
        "lat": 39.90419989999999,
        "lng": 116.4073963
      },
      "viewport": {
        "northeast": {
          "lat": 40.2164962,
          "lng": 116.7829835
        },
        "southwest": {
          "lat": 39.6612714,
          "lng": 116.0119343
        }
      }
    }
  },